City_ID,City,Lat,Lng,Max Temp,Humidity,Cloudiness,Wind Speed,Country,Date
0,wailua homesteads,22.0669,-159.378,22.44,86,100,6.17,US,2025-03-20 12:13:15
1,bethel,41.3712,-73.414,5.18,92,99,0.89,US,2025-03-20 12:13:16
2,bodaybo,57.8506,114.1933,-11.28,93,100,0.5,RU,2025-03-20 12:13:17
3,waitangi,-43.9535,-176.5597,13.79,90,93,0.89,NZ,2025-03-20 12:13:18
4,wickenburg,33.9686,-112.7296,8.33,32,63,0.89,US,2025-03-20 12:13:19
5,puerto natales,-51.7236,-72.4875,7.25,87,75,5.66,CL,2025-03-20 12:13:21
6,invercargill,-46.4,168.35,11.12,94,0,1.73,NZ,2025-03-20 12:13:22
7,longyearbyen,78.2186,15.6401,-12.09,67,75,9.26,SJ,2025-03-20 12:13:23
8,kos,36.8933,27.2889,12.69,47,0,12.2,GR,2025-03-20 12:13:24
9,centar zupa,41.4681,20.5589,10.34,32,0,2.15,MK,2025-03-20 12:13:25
10,howrah,22.5892,88.3103,31.0,42,40,1.54,IN,2025-03-20 12:13:26
11,grytviken,-54.2811,-36.5092,7.07,94,84,4.01,GS,2025-03-20 12:13:28
12,mega,4.05,38.3,26.69,32,50,7.21,ET,2025-03-20 12:13:29
13,happy valley-goose bay,53.3168,-60.3315,-1.87,82,100,4.03,CA,2025-03-20 12:13:30
14,tura,25.5198,90.2201,27.18,29,1,0.75,IN,2025-03-20 12:13:31
15,papatowai,-46.5619,169.4708,13.15,81,0,1.53,NZ,2025-03-20 12:13:32
16,nuuk,64.1835,-51.7216,-7.66,67,40,4.63,GL,2025-03-20 12:13:34
17,tsetserleg,47.475,101.4542,3.93,47,1,2.02,MN,2025-03-20 12:13:35
18,yellowknife,62.456,-114.3525,-31.96,100,12,1.8,CA,2025-03-20 12:13:36
19,bar-sur-aube,48.25,4.5833,16.51,53,43,5.12,FR,2025-03-20 12:13:37
20,petropavlovsk-kamchatsky,53.0452,158.6483,-5.67,86,100,3.0,RU,2025-03-20 12:10:43
21,iqaluit,63.7506,-68.5145,-22.95,76,99,0.81,CA,2025-03-20 12:13:39
22,kalix,65.853,23.1565,-1.62,81,14,1.6,SE,2025-03-20 12:13:41
23,adamstown,-25.066,-130.1015,24.56,76,44,3.79,PN,2025-03-20 12:13:42
24,georgetown,5.4112,100.3354,29.97,65,40,2.24,MY,2025-03-20 12:13:43
25,arraial do cabo,-22.9661,-42.0278,23.92,88,75,5.14,BR,2025-03-20 12:13:44
26,tionk essil,12.7856,-16.5217,32.09,23,2,3.03,SN,2025-03-20 12:13:45
27,egilsstadir,65.2653,-14.3948,6.02,87,85,4.79,IS,2025-03-20 12:13:47
28,tsiombe,-25.3,45.4833,25.37,75,99,7.62,MG,2025-03-20 12:13:48
29,selfoss,63.9331,-20.9971,6.36,97,100,5.92,IS,2025-03-20 12:13:49
30,olonkinbyen,70.9221,-8.7187,-2.87,97,100,9.3,SJ,2025-03-20 12:13:50
31,'alaqahdari dishu,30.4374,63.313,29.91,6,0,1.22,AF,2025-03-20 12:13:51
32,novyy urgal,51.0736,132.5642,-3.48,97,100,1.92,RU,2025-03-20 12:13:54
33,port-aux-francais,-49.35,70.2167,7.92,84,100,16.73,TF,2025-03-20 12:13:55
34,blackmans bay,-43.0167,147.3167,14.07,68,93,0.89,AU,2025-03-20 12:13:56
35,oyama,36.3,139.8,8.26,61,31,1.41,JP,2025-03-20 12:13:57
36,jamestown,42.097,-79.2353,13.34,67,75,5.36,US,2025-03-20 12:13:58
37,hirara,24.8,125.2833,16.43,57,0,6.73,JP,2025-03-20 12:13:59
38,newport,51.5877,-2.9984,18.06,80,27,3.55,GB,2025-03-20 12:14:01
39,alagoinhas,-12.1356,-38.4192,27.69,63,67,1.81,BR,2025-03-20 12:14:02
40,noumea,-22.2763,166.4572,24.67,69,98,6.23,NC,2025-03-20 12:14:03
41,bilibino,68.0546,166.4372,-29.37,83,2,2.9,RU,2025-03-20 12:14:04
42,whitehorse,60.7161,-135.0538,-8.87,97,100,0.5,CA,2025-03-20 12:14:05
43,puerto ayora,-0.7393,-90.3518,24.75,96,28,0.45,EC,2025-03-20 12:14:07
44,ribeira grande,38.5167,-28.7,16.22,67,40,7.2,PT,2025-03-20 12:14:08
45,chonchi,-42.6128,-73.8092,15.07,98,92,1.11,CL,2025-03-20 12:14:09
46,port-vila,-17.7338,168.3219,24.78,94,20,1.03,VU,2025-03-20 12:14:10
47,tiksi,71.6872,128.8694,-23.33,100,81,1.46,RU,2025-03-20 12:14:11
48,anshun,26.25,105.9333,8.83,61,100,1.72,CN,2025-03-20 12:14:14
49,hithadhoo,-0.6,73.0833,28.53,67,13,1.07,MV,2025-03-20 12:14:15
50,monticello,45.3055,-93.7941,-3.81,81,40,2.06,US,2025-03-20 12:14:16
51,uturoa,-16.7333,-151.4333,27.91,75,11,3.85,PF,2025-03-20 12:14:17
52,piacabucu,-10.4056,-36.4344,30.05,62,49,3.2,BR,2025-03-20 12:14:18
53,limulunga,-15.0969,23.1376,28.1,47,100,2.93,ZM,2025-03-20 12:14:20
54,cariati,39.4922,16.9594,10.74,59,0,2.91,IT,2025-03-20 12:14:21
55,castillos,-34.1667,-53.8333,21.93,71,22,1.5,UY,2025-03-20 12:14:22
56,island harbour,50.724,-1.2758,18.04,84,12,4.4,GB,2025-03-20 12:14:23
57,udachny,66.4167,112.4,-20.59,100,87,2.88,RU,2025-03-20 12:14:24
58,gaspe,48.8334,-64.4819,1.03,72,100,3.76,CA,2025-03-20 12:14:26
59,sretensk,52.2453,117.7093,-0.09,99,84,1.07,RU,2025-03-20 12:14:27
60,aleksandrovsk-sakhalinskiy,50.8975,142.1561,-8.52,84,69,3.69,RU,2025-03-20 12:14:28
61,sept-iles,50.2001,-66.3821,-1.64,90,75,7.72,CA,2025-03-20 12:14:29
62,atafu village,-8.5421,-172.5159,27.99,75,60,2.43,TK,2025-03-20 12:14:30
63,margaret river,-33.95,115.0667,15.22,73,2,4.25,AU,2025-03-20 12:14:32
64,saipan,15.1355,145.701,27.39,83,40,4.63,MP,2025-03-20 12:13:23
65,san antonio de pale,-1.4014,5.6325,28.06,74,76,4.15,GQ,2025-03-20 12:14:35
66,citeureup,-6.4856,106.8819,26.29,81,43,1.94,ID,2025-03-20 12:14:36
67,west island,-12.1568,96.8225,27.99,78,100,11.83,CC,2025-03-20 12:14:37
68,ushuaia,-54.8,-68.3,5.23,88,61,3.44,AR,2025-03-20 12:14:39
69,kuldiga,56.974,21.9572,9.11,44,74,4.71,LV,2025-03-20 12:14:40
70,aripuana,-9.1667,-60.6333,23.2,95,95,0.49,BR,2025-03-20 12:14:41
71,plastun,44.7561,136.2939,1.12,69,97,0.77,RU,2025-03-20 12:14:42
72,vinita,36.6387,-95.1541,1.12,62,92,0.89,US,2025-03-20 12:14:43
73,guerrero negro,27.9769,-114.0611,15.2,44,2,3.36,MX,2025-03-20 12:14:45
74,enewetak,11.3474,162.3373,26.75,83,69,8.69,MH,2025-03-20 12:14:46
75,albany,42.6001,-73.9662,8.15,87,100,2.24,US,2025-03-20 12:14:47
76,grenaa,56.4158,10.8783,12.12,64,45,0.89,DK,2025-03-20 12:14:48
77,colares,38.7992,-9.4469,17.11,74,40,8.23,PT,2025-03-20 12:14:49
78,stanley,54.868,-1.6985,13.07,36,0,1.54,GB,2025-03-20 12:14:50
79,santa maria da vitoria,-13.3947,-44.1886,30.61,32,90,1.05,BR,2025-03-20 12:14:52
80,edinburgh of the seven seas,-37.0676,-12.3116,14.36,59,91,7.14,SH,2025-03-20 12:14:53
81,prince rupert,54.3161,-130.3201,5.05,87,100,4.63,CA,2025-03-20 12:13:52
82,tralee,52.2704,-9.7026,16.14,63,0,9.26,IE,2025-03-20 12:14:55
83,valley city,46.9233,-98.0032,-8.71,100,0,4.63,US,2025-03-20 12:14:56
84,fort mcmurray,56.7268,-111.381,-14.5,99,100,1.8,CA,2025-03-20 12:14:58
85,luderitz,-26.6481,15.1594,21.1,83,75,5.94,NA,2025-03-20 12:14:59
86,tanjung pandan,-2.75,107.65,25.26,90,90,4.11,ID,2025-03-20 12:15:00
87,dudinka,69.4058,86.1778,-12.93,94,96,4.91,RU,2025-03-20 12:15:01
88,saldanha,-33.0117,17.9442,19.53,87,100,3.72,ZA,2025-03-20 12:15:02
89,utrik,11.2278,169.8474,26.93,79,25,10.11,MH,2025-03-20 12:15:03
90,kayangel,8.0823,134.7173,28.43,74,84,6.16,PW,2025-03-20 12:15:05
91,ust-nera,64.5667,143.2,-22.03,99,98,0.81,RU,2025-03-20 12:15:06
92,namibe,-15.1961,12.1522,27.31,71,58,4.68,AO,2025-03-20 12:15:07
93,lasam,18.0652,121.6006,19.35,95,100,1.43,PH,2025-03-20 12:15:08
94,bredasdorp,-34.5322,20.0403,29.35,43,92,3.81,ZA,2025-03-20 12:15:09
95,flying fish cove,-10.4217,105.6791,27.82,83,20,5.14,CX,2025-03-20 12:15:11
96,puerto aysen,-45.4,-72.7,13.85,100,100,2.2,CL,2025-03-20 12:15:12
97,wladyslawowo,54.7909,18.4009,14.96,41,0,2.59,PL,2025-03-20 12:15:13
98,galesong,-5.3166,119.3661,26.58,82,99,1.66,ID,2025-03-20 12:15:14
99,colonia,50.9333,6.95,19.41,40,0,2.06,DE,2025-03-20 12:15:15
100,harper,4.375,-7.7169,29.59,68,100,4.42,LR,2025-03-20 12:15:16
101,vallenar,-28.5708,-70.7581,18.37,64,0,0.52,CL,2025-03-20 12:15:18
102,senj,44.9894,14.9058,11.16,54,0,2.01,HR,2025-03-20 12:15:19
103,iskateley,67.6803,53.1512,-4.3,85,99,5.56,RU,2025-03-20 12:15:20
104,iquitos,-3.7481,-73.2472,24.02,100,40,1.03,PE,2025-03-20 12:15:21
105,lompoc,34.6391,-120.4579,6.5,81,0,0.0,US,2025-03-20 12:15:22
106,constantia,44.1833,28.65,13.38,51,28,3.68,RO,2025-03-20 12:15:24
107,al wajh,26.2455,36.4525,22.51,46,0,10.3,SA,2025-03-20 12:15:25
108,tqvarch'eli,42.8404,41.6801,4.46,89,100,2.38,GE,2025-03-20 12:15:26
109,tannum sands,-23.9504,151.3693,25.42,78,55,1.54,AU,2025-03-20 12:15:27
110,fernley,39.608,-119.2518,5.88,53,53,1.34,US,2025-03-20 12:15:28
111,kill devil hills,36.0307,-75.676,13.01,74,0,2.57,US,2025-03-20 12:15:29
112,hawaiian paradise park,19.5933,-154.9731,19.94,96,75,2.57,US,2025-03-20 12:15:31
113,zagora,30.3484,-5.8365,25.32,13,0,6.73,MA,2025-03-20 12:15:32
114,bubaque,11.2833,-15.8333,22.29,76,96,1.51,GW,2025-03-20 12:15:33
115,keflavik,64.0049,-22.5624,5.24,93,100,4.12,IS,2025-03-20 12:15:34
116,puerto gaitan,4.3133,-72.0816,25.86,79,100,1.46,CO,2025-03-20 12:15:35
117,villa regina,-39.1,-67.0667,20.55,31,35,0.89,AR,2025-03-20 12:15:37
118,isafjordur,66.0755,-23.124,6.02,75,75,1.54,IS,2025-03-20 12:15:38
119,motueka,-41.1333,173.0167,11.2,90,1,2.21,NZ,2025-03-20 12:15:39
120,harstad,68.799,16.5293,-1.58,91,100,1.79,NO,2025-03-20 12:15:40
121,thompson,55.7435,-97.8558,-18.31,99,100,2.2,CA,2025-03-20 12:14:35
122,cidreira,-30.1811,-50.2056,22.9,68,3,1.5,BR,2025-03-20 12:15:43
123,waterloo,43.4668,-80.5164,9.93,92,100,7.72,CA,2025-03-20 12:15:44
124,buala,-8.145,159.5921,26.8,82,86,1.45,SB,2025-03-20 12:15:45
125,sisimiut,66.9395,-53.6735,-11.23,69,96,6.45,GL,2025-03-20 12:15:46
126,portland,45.5234,-122.6762,7.12,90,100,7.2,US,2025-03-20 12:11:08
127,pulaski,34.7668,-92.3001,6.29,63,75,9.77,US,2025-03-20 12:15:49
128,hermanus,-34.4187,19.2345,23.66,67,96,3.38,ZA,2025-03-20 12:15:50
129,saruhanli,38.7346,27.5681,11.36,43,84,7.53,TR,2025-03-20 12:15:51
130,rio grande,-32.035,-52.0986,21.78,78,100,1.19,BR,2025-03-20 12:15:52
131,mana,5.6592,-53.7767,26.59,81,100,3.89,GF,2025-03-20 12:15:53
132,daye,30.0833,114.95,17.66,32,25,1.08,CN,2025-03-20 12:15:55
133,avarua,-21.2078,-159.775,27.03,78,75,4.63,CK,2025-03-20 12:15:56
134,kodiak,57.79,-152.4072,-1.27,93,40,2.57,US,2025-03-20 12:11:56
135,talnakh,69.4865,88.3972,-13.45,94,97,3.4,RU,2025-03-20 12:15:58
136,termini imerese,37.9837,13.6956,16.66,57,45,3.15,IT,2025-03-20 12:15:59
137,labuan,5.2767,115.2417,23.94,94,100,1.34,MY,2025-03-20 12:16:01
138,vorgashor,67.5833,63.95,-6.6,95,99,6.66,RU,2025-03-20 12:16:02
139,ponta delgada,37.7333,-25.6667,15.4,67,40,6.69,PT,2025-03-20 12:16:03
140,akureyri,65.6835,-18.0878,4.3,84,86,3.45,IS,2025-03-20 12:16:04
141,midvagur,62.0511,-7.1939,8.46,87,100,5.66,FO,2025-03-20 12:16:07
142,kirensk,57.7853,108.1119,-5.35,98,100,1.44,RU,2025-03-20 12:16:08
143,kavaratti,10.5669,72.642,28.79,72,12,0.46,IN,2025-03-20 12:16:09
144,korla,41.7597,86.1469,12.2,18,0,3.14,CN,2025-03-20 12:16:10
145,san rafael,-34.6177,-68.3301,23.66,42,59,2.62,AR,2025-03-20 12:16:12
146,mashhad,36.297,59.6062,29.08,21,0,3.09,IR,2025-03-20 12:15:47
147,buka,40.8108,69.1986,26.85,11,0,2.63,UZ,2025-03-20 12:16:14
148,mpika,-11.8343,31.4529,22.0,76,100,2.52,ZM,2025-03-20 12:16:15
149,rongelap,11.1635,166.8941,26.83,79,25,11.22,MH,2025-03-20 12:16:16
150,mukher,18.7,77.3667,37.73,17,10,3.67,IN,2025-03-20 12:16:17
151,hamilton,39.1834,-84.5333,8.29,68,100,6.69,US,2025-03-20 12:16:19
152,kenora,49.8167,-94.4337,-9.57,92,69,2.24,CA,2025-03-20 12:16:20
153,aasiaat,68.7098,-52.8699,-13.43,93,100,3.1,GL,2025-03-20 12:16:21
154,cooma,-36.2333,149.1333,17.01,74,77,2.13,AU,2025-03-20 12:16:22
155,vila franca do campo,37.7167,-25.4333,15.23,67,29,8.24,PT,2025-03-20 12:16:23
156,freetown,8.484,-13.2299,27.6,74,89,3.8,SL,2025-03-20 12:16:25
157,ixtapa,20.7,-105.2,16.79,78,2,1.19,MX,2025-03-20 12:16:26
158,polski trambesh,43.3836,25.6497,12.3,35,0,2.72,BG,2025-03-20 12:16:27
159,koidu,8.4167,-10.8333,32.75,48,75,1.25,SL,2025-03-20 12:16:28
160,las khorey,11.1595,48.1967,29.13,62,20,3.76,SO,2025-03-20 12:16:29
161,aljezur,37.3191,-8.8033,14.54,80,100,7.91,PT,2025-03-20 12:16:31
162,caleta de carquin,-11.0925,-77.6267,21.22,85,89,3.56,PE,2025-03-20 12:16:32
163,simanggang,1.2472,111.4528,25.01,94,100,1.34,MY,2025-03-20 12:16:33
164,mount isa,-20.7333,139.5,25.87,83,84,4.12,AU,2025-03-20 12:16:34
165,ghat,24.9647,10.1728,35.61,9,17,5.24,LY,2025-03-20 12:16:35
166,port alfred,-33.5906,26.891,29.6,48,14,4.88,ZA,2025-03-20 12:16:36
167,kerman,30.2832,57.0788,22.4,9,0,1.45,IR,2025-03-20 12:16:38
168,roccella ionica,38.322,16.4009,12.57,58,2,3.56,IT,2025-03-20 12:16:39
169,east london,-33.0153,27.9116,29.64,55,20,4.8,ZA,2025-03-20 12:16:13
170,ninghai,29.2892,121.4247,9.81,79,2,0.06,CN,2025-03-20 12:16:41
171,luanda,-8.8368,13.2343,32.0,66,40,5.14,AO,2025-03-20 12:16:44
172,miguel ahumada,30.6167,-106.5167,4.36,15,0,2.65,MX,2025-03-20 12:16:45
173,remire-montjoly,4.9167,-52.2667,29.02,74,40,3.6,GF,2025-03-20 12:16:46
174,solnechnyy,50.7214,136.6319,-5.67,95,96,2.14,RU,2025-03-20 12:16:47
175,caconda,-13.7333,15.0667,23.36,69,99,1.84,AO,2025-03-20 12:16:48
176,okhotsk,59.3833,143.3,-13.56,88,100,4.54,RU,2025-03-20 12:16:50
177,samara,53.0,50.0,3.43,80,39,3.84,RU,2025-03-20 12:16:51
178,betong,5.7743,101.0723,22.34,88,100,1.47,TH,2025-03-20 12:16:52
179,tidjikja,18.5564,-11.4271,38.1,8,0,5.92,MR,2025-03-20 12:16:54
180,sao joao da barra,-21.6403,-41.0511,27.05,88,100,3.45,BR,2025-03-20 12:16:56
181,san andres,12.5847,-81.7006,27.01,69,20,3.6,CO,2025-03-20 12:16:57
182,padangsidempuan,1.3667,99.2667,21.77,95,100,2.22,ID,2025-03-20 12:16:58
183,matehuala,23.65,-100.65,9.2,56,4,2.84,MX,2025-03-20 12:16:59
184,alzamay,55.5562,98.6644,8.94,67,94,4.71,RU,2025-03-20 12:17:00
185,sitka,57.0531,-135.33,2.94,87,75,0.0,US,2025-03-20 12:17:02
186,busselton,-33.65,115.3333,16.35,69,1,6.71,AU,2025-03-20 12:17:03
187,afaahiti,-17.75,-149.2833,26.25,75,13,2.34,PF,2025-03-20 12:17:04
188,koysinceq,36.0821,44.6278,19.37,42,90,6.01,IQ,2025-03-20 12:17:05
189,yamada,39.4667,141.95,1.19,91,65,2.49,JP,2025-03-20 12:17:06
190,hami,42.8,93.45,14.14,11,0,2.09,CN,2025-03-20 12:17:08
191,new norfolk,-42.7826,147.0587,13.73,89,100,1.2,AU,2025-03-20 12:17:10
192,coronel suarez,-37.4547,-61.9334,19.76,69,23,3.73,AR,2025-03-20 12:17:11
193,changli,39.7042,119.1506,16.12,26,0,5.44,CN,2025-03-20 12:17:12
194,kapa'a,22.0752,-159.319,23.18,87,100,6.17,US,2025-03-20 12:17:14
195,port elizabeth,-33.918,25.5701,35.16,23,20,4.12,ZA,2025-03-20 12:17:15
196,ola,59.5833,151.2833,-14.44,77,97,4.75,RU,2025-03-20 12:17:16
197,walla walla,46.0646,-118.343,7.15,74,100,8.23,US,2025-03-20 12:17:17
198,susuman,62.7833,148.1667,-28.31,98,81,1.32,RU,2025-03-20 12:17:18
199,box elder,41.5005,-112.8764,3.91,53,100,3.46,US,2025-03-20 12:17:20
200,alofi,-19.0595,-169.9187,24.94,100,97,3.09,NU,2025-03-20 12:17:22
201,talalayivka,50.9578,31.9209,9.43,50,6,2.78,UA,2025-03-20 12:17:23
202,ishigaki,24.3448,124.1572,14.07,58,0,4.12,JP,2025-03-20 12:17:24
203,kirakira,-10.4544,161.9205,27.19,84,67,2.73,SB,2025-03-20 12:17:26
204,caucete,-31.6518,-68.2811,26.29,35,2,0.87,AR,2025-03-20 12:17:28
205,st. john's,47.5649,-52.7093,1.27,96,100,6.17,CA,2025-03-20 12:17:29
206,deder,9.3167,41.45,18.76,59,96,1.94,ET,2025-03-20 12:17:31
207,port blair,11.6667,92.75,29.02,79,75,2.06,IN,2025-03-20 12:17:32
208,touros,-5.1989,-35.4608,29.38,63,75,5.31,BR,2025-03-20 12:17:33
209,college,64.8569,-147.8028,-18.03,79,40,0.0,US,2025-03-20 12:17:34
210,kuanda,56.3161,116.0806,-7.03,88,100,1.59,RU,2025-03-20 12:17:35
211,crane,31.3974,-102.3501,3.99,33,0,1.94,US,2025-03-20 12:17:36
212,kapit,2.0167,112.9333,23.74,98,96,0.87,MY,2025-03-20 12:17:38
213,abbeville,50.1,1.8333,19.71,57,11,4.29,FR,2025-03-20 12:17:39
214,ochakiv,46.6128,31.5498,8.32,59,62,2.27,UA,2025-03-20 12:17:40
215,sur,22.5667,59.5289,29.84,33,0,3.25,OM,2025-03-20 12:17:41
216,puerto madryn,-42.7692,-65.0385,20.97,49,39,1.22,AR,2025-03-20 12:17:42
217,khor,47.8861,134.9464,-2.17,98,100,1.44,RU,2025-03-20 12:17:44
218,nemuro,43.3236,145.575,0.13,85,63,2.97,JP,2025-03-20 12:17:45
219,al jawf,29.5,38.75,22.47,21,1,4.96,SA,2025-03-20 12:17:46
220,amga,60.8953,131.9608,-12.84,87,100,3.47,RU,2025-03-20 12:17:47
221,carnarvon,-24.8667,113.6333,26.63,64,2,10.22,AU,2025-03-20 12:17:48
222,ancud,-41.8697,-73.8203,14.79,98,98,2.79,CL,2025-03-20 12:17:50
223,badger,64.8,-147.5333,-18.07,82,40,0.0,US,2025-03-20 12:17:51
224,greenville,35.6127,-77.3663,13.41,77,0,4.63,US,2025-03-20 12:17:52
225,kosh-agach,50.0,88.6667,-4.48,82,27,1.38,RU,2025-03-20 12:17:53
226,saint-pierre,-21.3393,55.4781,29.82,70,75,4.12,RE,2025-03-20 12:17:54
227,shihezi,44.3,86.0333,10.08,44,0,1.63,CN,2025-03-20 12:17:56
228,itoman,26.1247,127.6694,14.43,58,40,1.54,JP,2025-03-20 12:17:57
229,ribeira brava,32.65,-17.0667,18.35,66,54,10.04,PT,2025-03-20 12:17:59
230,igarka,67.4667,86.5833,-10.53,93,99,4.15,RU,2025-03-20 12:18:00
231,mandera,3.9366,41.867,38.84,22,87,3.36,KE,2025-03-20 12:18:01
232,arauca,7.0847,-70.7591,23.98,100,75,1.54,CO,2025-03-20 12:18:03
233,kharhial,20.2833,82.7667,38.93,10,7,2.28,IN,2025-03-20 12:18:04
234,alice springs,-23.7,133.8833,27.75,61,100,3.09,AU,2025-03-20 12:18:05
235,qaqortoq,60.7167,-46.0333,-10.45,66,2,5.68,GL,2025-03-20 12:18:06
236,gao,16.6362,1.637,40.36,4,28,6.37,ML,2025-03-20 12:18:07
237,olovyannaya,50.95,115.5667,1.4,81,87,3.94,RU,2025-03-20 12:18:09
238,greymouth,-42.4667,171.2,11.49,83,0,2.04,NZ,2025-03-20 12:18:10
239,nago,26.5881,127.9761,13.33,64,8,3.74,JP,2025-03-20 12:18:11
240,margate,51.3813,1.3862,15.49,66,30,3.65,GB,2025-03-20 12:18:14
241,jamaame,0.0697,42.745,32.79,45,94,6.85,SO,2025-03-20 12:18:15
242,prado,-17.3411,-39.2208,29.07,64,90,4.08,BR,2025-03-20 12:18:16
243,nasir,15.5894,32.5634,37.81,11,5,5.1,SD,2025-03-20 12:18:18
244,warmbad,-28.45,18.7333,27.47,47,100,3.28,NA,2025-03-20 12:18:20
245,dzhangala,49.2167,50.3333,8.23,28,73,6.27,KZ,2025-03-20 12:18:21
246,shahecheng,36.9383,114.5058,17.65,11,0,3.26,CN,2025-03-20 12:18:22
247,mossel bay,-34.1831,22.146,28.96,75,70,2.23,ZA,2025-03-20 12:18:23
248,peniche,39.3558,-9.3811,16.78,72,44,9.78,PT,2025-03-20 12:18:24
249,dem'yanovo,60.3511,47.0842,-0.99,79,80,4.84,RU,2025-03-20 12:18:25
250,esmeraldas,-19.7625,-44.3139,24.31,64,45,2.51,BR,2025-03-20 12:18:27
251,abadeh,31.1608,52.6506,18.13,31,73,10.95,IR,2025-03-20 12:18:28
252,lihue,21.9789,-159.3672,22.77,73,100,6.17,US,2025-03-20 12:18:22
253,illizi,26.4833,8.4667,34.93,8,12,4.37,DZ,2025-03-20 12:18:30
254,haiku-pauwela,20.9219,-156.3051,21.81,80,0,9.83,US,2025-03-20 12:18:31
255,tuy hoa,13.0833,109.3,21.54,80,97,6.15,VN,2025-03-20 12:18:33
256,queenstown,-31.8976,26.8753,30.42,21,82,1.09,ZA,2025-03-20 12:18:35
257,vilyuchinsk,52.9306,158.4028,-4.85,95,100,3.71,RU,2025-03-20 12:18:36
258,valparaiso,-33.0393,-71.6273,19.44,78,100,2.06,CL,2025-03-20 12:18:37
259,wenchang,30.904,118.4887,14.09,46,0,2.6,CN,2025-03-20 12:18:39
260,lebu,-37.6167,-73.65,14.47,94,44,4.85,CL,2025-03-20 12:18:41
261,zhanaozen,43.3,52.8,8.4,70,99,8.57,KZ,2025-03-20 12:18:42
262,al ghayzah,16.2079,52.176,29.04,53,6,6.01,YE,2025-03-20 12:18:44
263,natal,-5.795,-35.2094,29.36,79,40,4.12,BR,2025-03-20 12:16:50
264,holualoa,19.6228,-155.9522,21.04,85,0,2.57,US,2025-03-20 12:18:46
265,kristiansund,63.1115,7.732,5.36,87,75,5.14,NO,2025-03-20 12:18:47
266,lata,40.1629,-8.3327,16.94,45,76,6.25,PT,2025-03-20 12:18:48
267,xinqing,48.2333,129.5,-5.16,98,67,1.18,CN,2025-03-20 12:18:49
268,dunedin,-45.8742,170.5036,13.22,92,17,2.68,NZ,2025-03-20 12:18:51
269,rincon,32.296,-81.2354,12.98,83,75,3.6,US,2025-03-20 12:18:52
270,orsa,54.5153,30.4053,8.58,55,6,4.47,BY,2025-03-20 12:18:53
271,labytnangi,66.6572,66.4183,-5.16,93,100,5.02,RU,2025-03-20 12:18:54
272,hasaki,35.7333,140.8333,9.97,63,27,3.42,JP,2025-03-20 12:18:55
273,el prat de llobregat,41.3278,2.0947,15.39,84,75,9.77,ES,2025-03-20 12:18:57
274,sosenskiy,54.059,35.9623,5.35,67,27,3.96,RU,2025-03-20 12:18:58
275,thunder bay,48.4001,-89.3168,-8.01,57,20,3.6,CA,2025-03-20 12:18:59
276,alamo,20.9167,-97.6833,20.6,85,74,3.58,MX,2025-03-20 12:19:00
277,coronado,32.6859,-117.1831,13.06,65,20,0.89,US,2025-03-20 12:19:01
278,langsa,4.4683,97.9683,25.81,79,99,0.81,ID,2025-03-20 12:19:03
279,port mathurin,-19.6833,63.4167,27.9,78,15,7.17,MU,2025-03-20 12:19:04
280,ilulissat,69.2167,-51.1,-9.99,73,75,4.12,GL,2025-03-20 12:19:05
281,mili,6.0815,171.735,27.08,82,42,10.57,MH,2025-03-20 12:19:06
282,kloulklubed,7.0419,134.2556,28.68,77,98,6.8,PW,2025-03-20 12:19:07
283,salgueiro,-8.0742,-39.1192,29.0,54,51,5.08,BR,2025-03-20 12:19:08
284,dongyang,29.2678,120.2253,12.23,59,3,1.29,CN,2025-03-20 12:19:10
285,al kharijah,25.4514,30.5464,23.49,17,0,8.64,EG,2025-03-20 12:19:11
286,maua,-23.6678,-46.4614,21.8,83,82,2.76,BR,2025-03-20 12:19:12
287,caico,-6.4583,-37.0978,29.49,57,39,4.75,BR,2025-03-20 12:19:13
288,raunds,52.3443,-0.5366,18.02,65,11,2.66,GB,2025-03-20 12:19:14
289,colonia menno,-22.3667,-59.8167,25.38,60,0,2.14,PY,2025-03-20 12:19:16
290,nar'yan-mar,67.6713,53.087,-4.34,85,99,5.55,RU,2025-03-20 12:19:17
291,brak,27.5496,14.2714,28.36,15,1,7.36,LY,2025-03-20 12:19:18
292,vadso,70.0744,29.7487,-2.91,80,75,9.77,NO,2025-03-20 12:19:19
293,maragogi,-9.0122,-35.2225,29.67,63,12,3.65,BR,2025-03-20 12:19:20
294,lazaro cardenas,17.9583,-102.2,21.51,90,51,2.2,MX,2025-03-20 12:19:22
295,trumann,35.6737,-90.5073,5.07,68,88,7.69,US,2025-03-20 12:19:23
296,tolanaro,-25.0319,46.9987,24.29,86,100,6.83,MG,2025-03-20 12:19:24
297,sotkamo,64.1333,28.4167,-0.73,71,15,2.29,FI,2025-03-20 12:19:25
298,deir ez-zor,35.3359,40.1408,17.32,35,82,4.0,SY,2025-03-20 12:19:26
299,san pedro pochutla,15.7333,-96.4667,22.62,71,12,1.45,MX,2025-03-20 12:19:28
300,alaghsas,17.0187,8.0168,39.94,5,0,11.32,NE,2025-03-20 12:19:29
301,paka,4.6374,103.4368,27.96,74,100,2.06,MY,2025-03-20 12:19:30
302,weno,7.4515,151.8468,28.97,79,100,4.63,FM,2025-03-20 12:19:31
303,kampong cham,11.9934,105.4635,30.39,34,86,2.92,KH,2025-03-20 12:19:32
304,reggane,26.7158,0.1714,34.05,5,10,4.56,DZ,2025-03-20 12:19:34
305,aparecida,-22.8469,-45.2297,22.83,68,40,3.09,BR,2025-03-20 12:19:35
306,camana,-16.6228,-72.7111,21.21,84,82,2.08,PE,2025-03-20 12:19:36
307,zakamensk,50.3741,103.2863,5.18,62,100,2.5,RU,2025-03-20 12:19:37
308,anadyr,64.75,177.4833,-29.72,76,0,5.0,RU,2025-03-20 12:19:38
309,debesy,57.6529,53.8049,-0.57,82,100,5.18,RU,2025-03-20 12:19:40
310,murghob,38.1702,73.9667,-9.36,60,4,1.0,TJ,2025-03-20 12:19:41
311,sinop,41.7711,34.8709,-0.66,93,93,5.28,TR,2025-03-20 12:19:42
312,ghadamis,30.1337,9.5007,30.41,13,7,7.43,LY,2025-03-20 12:19:44
313,nazyvayevsk,55.5698,71.3529,1.36,100,100,1.81,RU,2025-03-20 12:19:45
314,kralendijk,12.15,-68.2667,27.99,78,20,7.2,BQ,2025-03-20 12:19:46
315,urangan,-25.3,152.9,24.29,86,43,4.05,AU,2025-03-20 12:19:47
316,marand,38.4329,45.7749,16.17,41,18,12.01,IR,2025-03-20 12:19:49
317,amarkantak,22.6667,81.75,30.29,20,64,2.55,IN,2025-03-20 12:19:50
318,geraldton,-28.7667,114.6,23.23,68,0,8.75,AU,2025-03-20 12:19:51
319,chibougamau,49.9168,-74.3659,0.79,93,100,1.54,CA,2025-03-20 12:19:52
320,sola,-13.8833,167.55,27.88,78,25,6.75,VU,2025-03-20 12:19:53
321,urengoy,65.9667,78.3667,-10.4,93,74,4.5,RU,2025-03-20 12:19:54
322,hadibu,12.65,54.0333,28.83,59,3,6.11,YE,2025-03-20 12:19:57
323,laojunmiao,39.8333,97.7333,4.5,20,24,4.93,CN,2025-03-20 12:19:58
324,san patricio,28.017,-97.5169,10.97,29,8,4.92,US,2025-03-20 12:19:59
325,malvan,16.0667,73.4667,29.67,57,0,7.28,IN,2025-03-20 12:20:01
326,hotan,37.0997,79.9269,15.16,10,30,5.23,CN,2025-03-20 12:20:02
327,novonikolayevskiy,50.9738,42.3649,7.66,71,99,3.13,RU,2025-03-20 12:20:03
328,yinchuan,38.4681,106.2731,11.22,10,0,2.56,CN,2025-03-20 12:20:04
329,as sulayyil,20.4607,45.5779,37.46,12,49,5.18,SA,2025-03-20 12:20:05
330,saint-louis,16.3333,-15.0,35.56,13,0,6.18,SN,2025-03-20 12:20:06
331,laascaanood,8.4774,47.3597,33.07,21,74,6.23,SO,2025-03-20 12:20:08
332,pierre,44.3683,-100.351,-3.18,80,0,5.14,US,2025-03-20 12:20:09
333,milot,19.6167,-72.2167,20.28,70,0,1.7,HT,2025-03-20 12:20:10
334,malayer,34.2969,48.8235,16.0,47,52,10.69,IR,2025-03-20 12:20:11
335,pyin oo lwin,22.0333,96.4667,23.24,27,0,1.49,MM,2025-03-20 12:20:12
336,hovd,48.0056,91.6419,-4.35,76,0,0.41,MN,2025-03-20 12:20:14
337,swakopmund,-22.6833,14.5333,20.48,88,91,3.93,NA,2025-03-20 12:20:15
338,porbandar,21.6422,69.6093,27.37,55,0,6.82,IN,2025-03-20 12:20:16
339,livingstone,-17.8419,25.8543,29.27,42,80,2.21,ZM,2025-03-20 12:20:17
340,trujillo,-8.116,-79.03,16.98,100,100,3.09,PE,2025-03-20 12:20:18
341,sao miguel do araguaia,-13.275,-50.1628,26.83,75,48,1.85,BR,2025-03-20 12:20:20
342,kiama,-34.6833,150.8667,23.65,83,62,2.68,AU,2025-03-20 12:20:22
343,belmonte,-15.8631,-38.8828,28.44,68,92,3.63,BR,2025-03-20 12:20:23
344,shakiso,5.75,38.9167,23.94,49,98,1.33,ET,2025-03-20 12:20:24
345,trinity beach,-16.7888,145.6968,25.94,89,75,1.03,AU,2025-03-20 12:20:26
346,dashiqiao,40.6373,122.5025,6.87,48,10,2.12,CN,2025-03-20 12:20:27
347,bossangoa,6.4926,17.4552,41.03,19,95,1.78,CF,2025-03-20 12:20:28
348,salacgriva,57.7536,24.3581,5.38,74,93,5.39,LV,2025-03-20 12:20:29
349,al bahah,20.0129,41.4677,18.74,49,17,6.35,SA,2025-03-20 12:20:30
350,karimganj,24.8667,92.35,28.13,38,0,1.96,IN,2025-03-20 12:20:32
351,cimin,39.7101,39.7021,-1.96,69,75,0.0,TR,2025-03-20 12:20:33
352,westport,41.1415,-73.3579,6.57,94,100,3.09,US,2025-03-20 12:20:34
353,namdrik,5.5994,168.1028,27.4,82,71,10.5,MH,2025-03-20 12:20:35
354,sinabang,2.4803,96.3801,27.45,77,100,0.2,ID,2025-03-20 12:20:36
355,pandan,14.0453,124.1694,25.17,80,100,8.05,PH,2025-03-20 12:20:37
356,the pas,53.8251,-101.2541,-8.99,79,100,2.06,CA,2025-03-20 12:20:39
357,fortuna,40.5982,-124.1573,6.31,97,100,2.57,US,2025-03-20 12:20:40
358,coquimbo,-29.9533,-71.3436,17.85,82,100,0.51,CL,2025-03-20 12:20:41
359,labrador city,52.9463,-66.9114,-4.05,80,100,4.63,CA,2025-03-20 12:20:42
360,tallinn,59.437,24.7535,6.64,70,40,7.2,EE,2025-03-20 12:20:43
361,galliano,29.4422,-90.2992,12.0,43,0,8.75,US,2025-03-20 12:20:45
362,fort st. john,56.2499,-120.8529,-1.06,74,100,2.57,CA,2025-03-20 12:20:46
363,port saint john's,-31.6229,29.5448,30.03,59,11,6.78,ZA,2025-03-20 12:20:47
364,miasskoye,55.2784,61.8905,5.48,67,64,4.22,RU,2025-03-20 12:20:48
365,gebeit,21.0667,36.3167,32.79,9,1,5.66,SD,2025-03-20 12:20:49
366,taltal,-25.4,-70.4833,19.72,76,4,1.16,CL,2025-03-20 12:20:50
367,sterling,39.0062,-77.4286,11.13,50,20,2.06,US,2025-03-20 12:20:52
368,vershino-darasunskiy,52.35,115.5167,2.23,78,61,5.29,RU,2025-03-20 12:20:53
369,tazovsky,67.4667,78.7,-11.93,95,86,5.54,RU,2025-03-20 12:20:54
370,usogorsk,63.4106,48.6872,-3.32,77,99,5.47,RU,2025-03-20 12:20:55
371,siwa oasis,29.2041,25.5195,19.26,26,0,5.4,EG,2025-03-20 12:20:56
372,magadan,59.5667,150.8,-13.96,75,99,5.14,RU,2025-03-20 12:20:59
373,palmer,42.1584,-72.3287,6.96,80,100,0.0,US,2025-03-20 12:21:00
374,susanville,40.4163,-120.653,1.91,83,0,5.14,US,2025-03-20 12:21:01
375,yuzhno-kurilsk,44.0306,145.8556,-1.81,90,74,3.31,RU,2025-03-20 12:21:03
376,kamensk-ural'skiy,56.4185,61.9329,1.4,71,20,5.69,RU,2025-03-20 12:21:04
377,klyuchi,52.2667,79.1667,4.75,83,97,5.79,RU,2025-03-20 12:21:05
378,robore,-18.3333,-59.75,24.05,88,7,0.0,BO,2025-03-20 12:21:06
379,manta,-0.95,-80.7333,23.88,94,75,1.54,EC,2025-03-20 12:21:07
380,sydney,-33.8679,151.2073,24.08,78,34,9.77,AU,2025-03-20 12:14:04
381,ta`u,-14.2336,-169.5144,28.0,79,99,6.22,AS,2025-03-20 12:21:10
382,vizinga,61.0749,50.1031,-1.42,71,90,4.5,RU,2025-03-20 12:21:11
383,turgen,43.4006,77.5933,16.46,46,5,0.69,KZ,2025-03-20 12:21:12
384,pasuquin,18.3328,120.6177,24.97,61,40,2.06,PH,2025-03-20 12:21:13
385,fort bragg,35.139,-79.006,13.91,60,0,4.63,US,2025-03-20 12:21:14
386,vrangel',42.7297,133.0839,2.22,90,91,1.2,RU,2025-03-20 12:21:16
387,rechka-vydrino,51.485,104.8461,6.18,77,99,2.99,RU,2025-03-20 12:21:17
388,puerto deseado,-47.7503,-65.8938,16.22,53,100,5.82,AR,2025-03-20 12:21:18
389,pisco,-13.7,-76.2167,20.03,83,75,0.0,PE,2025-03-20 12:21:19
390,martapura,-3.4167,114.85,24.05,100,40,1.54,ID,2025-03-20 12:21:20
391,ulladulla,-35.35,150.4667,21.3,80,27,3.78,AU,2025-03-20 12:21:21
392,belyy yar,53.6039,91.3903,12.94,41,0,2.0,RU,2025-03-20 12:21:23
393,samus',56.7475,84.6992,4.61,83,100,4.28,RU,2025-03-20 12:21:24
394,kiambu,-1.1667,36.8333,21.46,64,75,5.66,KE,2025-03-20 12:21:25
395,puerto armuelles,8.2833,-82.8667,25.61,84,88,1.79,PA,2025-03-20 12:21:26
396,kasane,-17.8167,25.15,30.05,42,40,3.6,BW,2025-03-20 12:21:27
397,santa ana,33.7456,-117.8678,13.94,52,0,0.0,US,2025-03-20 12:19:41
398,northam,51.0333,-4.2167,14.38,75,69,8.28,GB,2025-03-20 12:21:30
399,aksay,47.26,39.87,7.12,33,0,2.8,RU,2025-03-20 12:21:31
400,baoro,5.6667,15.9667,36.71,24,88,4.53,CF,2025-03-20 12:21:32
401,north bend,43.4065,-124.2243,7.87,87,74,7.72,US,2025-03-20 12:21:33
402,kuta,-8.7233,115.1723,25.97,94,75,2.06,ID,2025-03-20 12:21:35
403,vanimo,-2.6741,141.3028,26.72,85,87,2.01,PG,2025-03-20 12:21:36
404,victorica,-36.2151,-65.4359,24.48,52,69,3.35,AR,2025-03-20 12:21:37
405,qurayyat,31.3318,37.3428,18.1,24,40,8.23,SA,2025-03-20 12:21:38
406,boa vista,2.8197,-60.6733,25.99,83,75,5.14,BR,2025-03-20 12:21:41
407,miracema do tocantins,-9.5618,-48.3967,26.01,88,97,2.84,BR,2025-03-20 12:21:42
408,parabel',58.6978,81.4825,0.7,100,100,0.62,RU,2025-03-20 12:21:43
409,el granada,37.5027,-122.4694,9.36,91,100,1.54,US,2025-03-20 12:21:44
410,langres,47.8333,5.3333,13.45,58,12,8.09,FR,2025-03-20 12:21:45
411,nosy varika,-20.5833,48.5333,27.01,76,66,5.32,MG,2025-03-20 12:21:47
412,burgersdorp,-30.9977,26.3286,27.22,23,88,0.39,ZA,2025-03-20 12:21:48
413,oshawa,43.9001,-78.8496,10.11,71,100,3.6,CA,2025-03-20 12:21:49
414,mogadishu,2.0371,45.3438,29.93,79,20,5.14,SO,2025-03-20 12:21:50
415,kerikeri,-35.2268,173.9474,13.28,90,1,2.04,NZ,2025-03-20 12:21:51
416,tromso,69.6496,18.957,-2.99,86,75,4.12,NO,2025-03-20 12:21:53
417,port moresby,-9.4431,147.1797,25.42,89,100,1.12,PG,2025-03-20 12:21:54
418,bamboo flat,11.7,92.7167,29.05,79,75,2.06,IN,2025-03-20 12:21:55
419,papao,-17.75,-149.55,24.82,75,17,3.19,PF,2025-03-20 12:21:56
420,tual,-5.6667,132.75,28.62,77,100,2.19,ID,2025-03-20 12:19:39
421,mitchell,43.7094,-98.0298,-4.91,74,0,4.12,US,2025-03-20 12:21:59
422,alotau,-10.3069,150.4462,25.59,87,93,0.69,PG,2025-03-20 12:22:00
423,jijel,36.8205,5.7667,22.97,43,0,4.63,DZ,2025-03-20 12:22:01
424,yatou,37.15,122.3833,8.75,48,0,2.32,CN,2025-03-20 12:22:02
425,codrington,-38.2667,141.9667,15.59,80,100,5.93,AU,2025-03-20 12:22:03
426,gubkinskiy,64.434,76.5026,-8.89,93,8,4.68,RU,2025-03-20 12:22:05
427,boda,4.3189,17.4695,38.75,23,69,1.86,CF,2025-03-20 12:22:06
428,novodvinsk,64.4165,40.8122,-3.14,84,80,4.22,RU,2025-03-20 12:22:07
429,ribas do rio pardo,-20.4431,-53.7592,26.23,61,0,3.91,BR,2025-03-20 12:22:08
430,nova sintra,14.8667,-24.7167,20.41,81,2,12.9,CV,2025-03-20 12:22:09
431,jaen,38.0,-3.5,16.27,53,98,1.63,ES,2025-03-20 12:22:10
432,magistral'nyy,56.1725,107.4458,0.04,99,100,1.56,RU,2025-03-20 12:22:12
433,al hada,21.3675,40.2869,21.18,45,87,5.97,SA,2025-03-20 12:22:13
434,robbah,33.2797,6.9098,22.8,34,0,8.75,DZ,2025-03-20 12:22:14
435,karratha,-20.7377,116.8463,29.66,59,32,5.03,AU,2025-03-20 12:22:15
436,norilsk,69.3535,88.2027,-14.91,93,77,3.15,RU,2025-03-20 12:19:23
437,crucecita,-28.95,-58.9833,24.27,33,0,4.69,AR,2025-03-20 12:22:18
438,kupang,-10.1667,123.5833,27.32,100,75,1.54,ID,2025-03-20 12:22:20
439,aykhal,66.0,111.5,-15.2,97,100,4.15,RU,2025-03-20 12:22:21
440,newcastle west,52.4492,-9.0611,15.62,72,97,5.93,IE,2025-03-20 12:22:22
441,kotka,60.4664,26.9458,6.29,92,91,5.81,FI,2025-03-20 12:22:24
442,ico,-6.4011,-38.8622,27.91,71,79,1.49,BR,2025-03-20 12:22:26
443,klaksvik,62.2266,-6.589,7.08,91,100,8.35,FO,2025-03-20 12:22:27
444,zanjan,36.6736,48.4787,14.83,47,75,7.2,IR,2025-03-20 12:22:29
445,baneh,35.9975,45.8853,7.78,90,100,4.94,IR,2025-03-20 12:22:30
446,pingliang,35.5392,106.6861,9.22,19,25,1.99,CN,2025-03-20 12:22:31
447,grand falls-windsor,48.9332,-55.6649,-0.83,90,29,3.86,CA,2025-03-20 12:22:32
448,volodarskiy,46.4013,48.5409,9.72,38,95,4.51,RU,2025-03-20 12:22:33
449,sallisaw,35.4604,-94.7875,3.98,57,0,5.66,US,2025-03-20 12:22:35
450,yemetsk,63.4721,41.7941,-2.27,84,87,4.49,RU,2025-03-20 12:22:36
451,bodo,67.28,14.405,1.02,69,75,3.6,NO,2025-03-20 12:22:37
452,smithers,54.7804,-127.1743,2.18,69,20,2.57,CA,2025-03-20 12:22:38
453,uacu cungo,-11.3634,15.1208,24.95,69,99,0.73,AO,2025-03-20 12:22:39
454,el alto,-4.2714,-81.2147,23.97,67,99,3.54,PE,2025-03-20 12:22:40
455,tal'menka,53.8183,83.5677,3.93,77,92,4.22,RU,2025-03-20 12:22:42
456,nuku'alofa,-21.1333,-175.2,26.19,94,40,2.06,TO,2025-03-20 12:22:43
457,katsuura,35.1333,140.3,8.62,55,0,2.88,JP,2025-03-20 12:22:44
458,bulgan,48.8125,103.5347,5.82,50,18,2.81,MN,2025-03-20 12:22:45
459,barra de santo antonio,-9.4047,-35.5072,28.51,69,9,3.05,BR,2025-03-20 12:22:46
460,calabozo,8.9242,-67.4293,27.83,61,100,4.06,VE,2025-03-20 12:22:48
461,kapuskasing,49.4169,-82.4331,-6.95,79,100,7.72,CA,2025-03-20 12:22:49
462,thakurgaon,26.0333,88.4667,31.58,14,5,2.32,BD,2025-03-20 12:22:50
463,coahuayana de hidalgo,18.7,-103.6583,20.37,45,100,1.24,MX,2025-03-20 12:22:51
464,el trebol,-32.2008,-61.7014,22.23,69,11,1.34,AR,2025-03-20 12:22:52
465,berezovyy,51.6667,135.7,-5.74,98,100,1.15,RU,2025-03-20 12:22:54
466,sao raimundo nonato,-9.0153,-42.6994,26.5,79,48,1.6,BR,2025-03-20 12:22:55
467,kumi,36.1136,128.336,11.75,56,0,2.51,KR,2025-03-20 12:20:32
468,namie,37.4833,141.0,4.43,66,21,2.73,JP,2025-03-20 12:22:57
469,malmberget,67.1753,20.6549,-2.69,54,0,7.2,SE,2025-03-20 12:22:58
470,clinton,42.587,-82.9199,9.01,67,40,11.32,US,2025-03-20 12:22:59
471,saurimo,-9.6608,20.3916,21.93,88,98,2.48,AO,2025-03-20 12:23:01
472,orange walk,17.8333,-88.8333,23.11,84,91,1.11,BZ,2025-03-20 12:23:02
473,toliara,-23.35,43.6667,29.52,57,89,4.51,MG,2025-03-20 12:23:03
474,parauapebas,-6.0675,-49.9022,26.99,83,75,2.06,BR,2025-03-20 12:23:04
475,nouadhibou,20.931,-17.0347,22.99,53,0,9.77,MR,2025-03-20 12:23:05
476,taoudenni,22.6783,-3.9836,38.74,6,4,6.57,ML,2025-03-20 12:23:07
477,bonthe,7.5264,-12.505,30.56,62,77,3.06,SL,2025-03-20 12:23:08
478,homer,59.6425,-151.5483,3.36,85,100,0.0,US,2025-03-20 12:23:09
479,almodovar del rio,37.8336,-5.0167,17.49,77,20,2.57,ES,2025-03-20 12:23:10
480,manado,1.487,124.8455,25.43,94,40,1.03,ID,2025-03-20 12:23:11
481,pingdingshan,33.7385,113.3012,15.22,21,0,4.21,CN,2025-03-20 12:23:13
482,kingston,17.997,-76.7936,24.53,61,20,3.09,JM,2025-03-20 12:23:14
483,rio maior,39.3373,-8.9391,14.58,75,43,0.89,PT,2025-03-20 12:23:15
484,sumbawanga,-7.9667,31.6167,17.68,89,97,2.21,TZ,2025-03-20 12:23:17
485,bhag,29.0415,67.8239,34.02,8,0,2.88,PK,2025-03-20 12:23:19
486,bandon,51.7469,-8.7425,13.77,79,85,8.03,IE,2025-03-20 12:23:20
487,ariquemes,-9.9133,-63.0408,24.06,96,90,0.55,BR,2025-03-20 12:23:21
488,ibimirim,-8.5406,-37.6903,28.87,54,8,2.66,BR,2025-03-20 12:23:22
489,villa de arista,22.65,-100.8333,10.55,84,78,5.34,MX,2025-03-20 12:23:23
490,tadmur,34.5608,38.2805,13.77,48,46,2.08,SY,2025-03-20 12:23:25
491,igrim,63.1906,64.4162,-1.26,82,100,3.94,RU,2025-03-20 12:23:26
492,wynyard,-41.0,145.7167,12.33,77,83,1.34,AU,2025-03-20 12:23:27
493,lorengau,-2.0226,147.2712,27.7,79,81,2.52,PG,2025-03-20 12:23:28
494,cabimas,10.3883,-71.4399,26.17,81,84,1.65,VE,2025-03-20 12:23:29
495,yeniseysk,58.4497,92.1703,1.9,99,100,2.31,RU,2025-03-20 12:23:30
496,mil'kovo,55.6078,37.7956,9.24,42,40,5.61,RU,2025-03-20 12:23:32
497,punta arenas,-53.15,-70.9167,7.06,81,0,7.72,CL,2025-03-20 12:23:33
498,ermelo,-26.5333,29.9833,24.52,35,40,2.37,ZA,2025-03-20 12:23:34
499,mazagao,-0.115,-51.2894,25.58,87,97,1.96,BR,2025-03-20 12:23:35
500,vryburg,-26.9566,24.7284,25.98,40,95,4.07,ZA,2025-03-20 12:23:36
501,motygino,58.1831,94.7592,1.17,100,100,1.58,RU,2025-03-20 12:23:38
502,newman,37.3138,-121.0208,7.81,88,86,1.79,US,2025-03-20 12:23:39
503,copala,16.65,-98.9833,22.86,63,4,1.45,MX,2025-03-20 12:23:40
504,maumere,-8.6199,122.2111,26.27,84,100,1.7,ID,2025-03-20 12:23:41
505,dame-marie,18.5667,-74.4167,22.89,67,0,5.01,HT,2025-03-20 12:23:42
506,turpan,42.9333,89.1667,17.59,8,0,2.15,CN,2025-03-20 12:23:44
507,fale old settlement,-9.3852,-171.2468,28.16,75,98,2.62,TK,2025-03-20 12:23:45
508,dossor,47.5272,52.9811,8.92,36,100,6.62,KZ,2025-03-20 12:23:46
509,lashio,22.9333,97.75,25.25,22,29,1.25,MM,2025-03-20 12:23:47
510,ljusdal,61.8288,16.0913,5.26,77,93,2.16,SE,2025-03-20 12:23:48
511,huadian,42.9633,126.7478,7.86,49,82,4.12,CN,2025-03-20 12:23:49
512,al qadarif,14.0349,35.3834,38.99,8,15,5.46,SD,2025-03-20 12:23:51
513,ephraim,39.3597,-111.5863,-1.22,79,100,2.58,US,2025-03-20 12:23:52
514,kailua-kona,19.6406,-155.9956,23.11,83,0,2.57,US,2025-03-20 12:23:53
515,ban dung,17.699,103.2596,23.9,100,67,3.19,TH,2025-03-20 12:23:54
516,gadzhiyevo,69.2551,33.3362,-4.39,82,84,10.71,RU,2025-03-20 12:23:55
517,howard springs,-12.497,131.047,28.95,98,94,1.45,AU,2025-03-20 12:23:57
518,la passe,45.5549,-0.8967,16.62,67,98,9.37,FR,2025-03-20 12:23:58
519,morris,40.8334,-74.5329,5.68,91,100,2.06,US,2025-03-20 12:23:59
520,vilhena,-12.7406,-60.1458,23.12,94,40,2.57,BR,2025-03-20 12:24:00
521,nantucket,41.2835,-70.0995,6.06,87,100,3.6,US,2025-03-20 12:24:01
522,jorpeland,59.0225,6.0408,8.95,68,33,1.9,NO,2025-03-20 12:24:02
523,bethanie,-26.4833,17.15,28.06,44,91,8.49,NA,2025-03-20 12:24:04
524,cacoal,-11.4386,-61.4472,23.57,94,100,0.37,BR,2025-03-20 12:24:05
525,wanxian,30.8039,108.3897,16.59,57,100,0.58,CN,2025-03-20 12:24:06
526,mantua,45.1667,10.7833,14.63,54,17,1.34,IT,2025-03-20 12:24:08
527,khulm,36.6974,67.6983,25.01,21,0,4.4,AF,2025-03-20 12:24:11
528,tommot,58.9564,126.2925,-5.63,92,100,6.36,RU,2025-03-20 12:24:12
529,port shepstone,-30.7414,30.455,25.84,77,0,9.69,ZA,2025-03-20 12:24:13
530,missoula,47.0166,-113.8009,-6.47,93,100,0.73,US,2025-03-20 12:24:15
531,tarauaca,-8.1614,-70.7656,22.58,97,99,1.08,BR,2025-03-20 12:24:16
532,muromtsevo,56.3724,75.2418,2.08,100,100,2.27,RU,2025-03-20 12:24:17
533,oliveira dos brejinhos,-12.3169,-42.8961,32.21,38,73,1.76,BR,2025-03-20 12:24:18
534,tiznit,29.5833,-9.5,23.47,25,0,4.63,MA,2025-03-20 12:24:19
535,faaa,-17.55,-149.6,24.98,88,0,1.03,PF,2025-03-20 12:24:20
536,toamasina,-18.1667,49.3833,29.0,74,75,8.23,MG,2025-03-20 12:24:22
537,conception bay south,47.4999,-52.9981,1.36,96,97,4.43,CA,2025-03-20 12:24:23
538,mukalla,14.5425,49.1242,28.3,56,11,3.67,YE,2025-03-20 12:24:24
539,hepingjie,42.0597,126.9158,2.23,62,80,2.38,CN,2025-03-20 12:24:25
540,mandal,25.45,74.5667,32.93,12,26,5.95,IN,2025-03-20 12:24:26
541,puerto penasco,31.3167,-113.5333,17.39,34,5,4.52,MX,2025-03-20 12:24:28
542,viradouro,-20.8731,-48.2969,21.37,81,34,3.21,BR,2025-03-20 12:24:29
543,nema,57.5067,50.5011,-0.27,77,63,4.35,RU,2025-03-20 12:24:30
544,fortaleza,-3.7227,-38.5247,30.07,74,75,6.17,BR,2025-03-20 12:24:31
545,at-bashi,41.1702,75.8106,1.46,76,1,1.47,KG,2025-03-20 12:24:32
546,carutapera,-1.195,-46.02,26.17,92,84,3.22,BR,2025-03-20 12:24:34
547,rio brilhante,-21.8019,-54.5464,26.27,57,0,3.85,BR,2025-03-20 12:24:35
548,ardakan,32.31,54.0175,30.15,8,47,3.48,IR,2025-03-20 12:24:36
549,jikamshi,12.1733,7.7742,37.68,5,99,5.95,NG,2025-03-20 12:24:37
550,perugorria,-29.3413,-58.6106,24.75,32,0,5.38,AR,2025-03-20 12:24:38
551,san luis de la loma,17.2706,-100.8939,22.91,48,5,1.39,MX,2025-03-20 12:24:39
552,laishevo,55.4046,49.5504,1.12,79,51,5.99,RU,2025-03-20 12:24:41
553,i-n-salah,27.1935,2.4607,32.88,5,8,3.33,DZ,2025-03-20 12:24:42
554,dryden,49.7833,-92.7503,-11.84,85,20,2.57,CA,2025-03-20 12:24:43
555,lesosibirsk,58.2358,92.4828,2.48,98,100,2.6,RU,2025-03-20 12:24:44
556,tomatlan,19.9333,-105.25,15.36,41,34,1.09,MX,2025-03-20 12:24:45
557,coyhaique,-45.5752,-72.0662,11.69,99,100,2.83,CL,2025-03-20 12:24:47
558,villa gesell,-37.2639,-56.973,21.07,85,14,3.26,AR,2025-03-20 12:24:48
559,zapolyarnyy,69.4154,30.8136,-6.01,84,55,7.92,RU,2025-03-20 12:24:49
560,lodja,-3.4833,23.4333,26.55,67,99,1.33,CD,2025-03-20 12:24:50
561,nasugbu,14.1,120.6833,24.3,77,100,5.57,PH,2025-03-20 12:24:51
562,vernon,50.2581,-119.2691,3.75,83,100,3.6,CA,2025-03-20 12:24:53
563,aldama,22.9167,-98.0667,18.56,67,66,8.02,MX,2025-03-20 12:24:54
564,masuda,34.6667,131.85,7.59,84,9,4.83,JP,2025-03-20 12:24:55
